[
  { "place": "New York City", "latitude": 40.71, "longitude": -74.01 },
  { "place": "London", "latitude": 51.51, "longitude": -0.13 },
  { "place": "Paris", "latitude": 48.85, "longitude": 2.35 },
  { "place": "Tokyo", "latitude": 35.69, "longitude": 139.69 },
  { "place": "Beijing", "latitude": 39.91, "longitude": 116.4 },
  { "place": "Moscow", "latitude": 55.75, "longitude": 37.62 },
  { "place": "Delhi", "latitude": 28.64, "longitude": 77.22 },
  { "place": "Mumbai", "latitude": 19.08, "longitude": 72.88 },
  { "place": "São Paulo", "latitude": -23.55, "longitude": -46.63 },
  { "place": "Mexico City", "latitude": 19.43, "longitude": -99.13 },
  { "place": "Cairo", "latitude": 30.06, "longitude": 31.25 },
  { "place": "Bangkok", "latitude": 13.75, "longitude": 100.5 },
  { "place": "Sydney", "latitude": -33.87, "longitude": 151.21 },
  { "place": "Singapore", "latitude": 1.29, "longitude": 103.85 },
  { "place": "Los Angeles", "latitude": 34.05, "longitude": -118.24 },
  { "place": "Istanbul", "latitude": 41.01, "longitude": 28.96 },
  { "place": "Dubai", "latitude": 25.2, "longitude": 55.27 },
  { "place": "Hong Kong", "latitude": 22.29, "longitude": 114.16 },
  { "place": "Rome", "latitude": 41.89, "longitude": 12.51 },
  { "place": "Berlin", "latitude": 52.52, "longitude": 13.41 },
  { "place": "Madrid", "latitude": 40.42, "longitude": -3.7 },
  { "place": "Toronto", "latitude": 43.65, "longitude": -79.38 },
  { "place": "Buenos Aires", "latitude": -34.61, "longitude": -58.38 },
  { "place": "Seoul", "latitude": 37.57, "longitude": 126.98 },
  { "place": "Jakarta", "latitude": -6.21, "longitude": 106.85 },
  { "place": "Lagos", "latitude": 6.52, "longitude": 3.38 },
  { "place": "Lima", "latitude": -12.04, "longitude": -77.03 },
  { "place": "Bangkok", "latitude": 13.75, "longitude": 100.5 },
  { "place": "Barcelona", "latitude": 41.39, "longitude": 2.17 },
  { "place": "Amsterdam", "latitude": 52.37, "longitude": 4.89 },
  { "place": "Vienna", "latitude": 48.21, "longitude": 16.37 },
  { "place": "Prague", "latitude": 50.09, "longitude": 14.42 },
  { "place": "Athens", "latitude": 37.98, "longitude": 23.72 },
  { "place": "Budapest", "latitude": 47.5, "longitude": 19.04 },
  { "place": "Hanoi", "latitude": 21.02, "longitude": 105.84 },
  { "place": "Buenos Aires", "latitude": -34.61, "longitude": -58.38 },
  { "place": "Cape Town", "latitude": -33.93, "longitude": 18.42 },
  { "place": "Rio de Janeiro", "latitude": -22.91, "longitude": -43.17 },
  { "place": "Kuala Lumpur", "latitude": 3.14, "longitude": 101.69 },
  { "place": "Bangkok", "latitude": 13.75, "longitude": 100.5 },
  { "place": "San Francisco", "latitude": 37.77, "longitude": -122.42 },
  { "place": "Montreal", "latitude": 45.5, "longitude": -73.57 },
  { "place": "Mumbai", "latitude": 19.08, "longitude": 72.88 },
  { "place": "Shanghai", "latitude": 31.23, "longitude": 121.47 },
  { "place": "Nairobi", "latitude": -1.29, "longitude": 36.82 },
  { "place": "Doha", "latitude": 25.29, "longitude": 51.53 },
  { "place": "Tehran", "latitude": 35.69, "longitude": 51.42 },
  { "place": "Santiago", "latitude": -33.45, "longitude": -70.67 }
]
